,City name,Country code,Latitude,Longitude,Temperature,Wind speed,Humidity,Cloudiness
1,tokur,ru,53.13,132.9,-24.49,1.06,53.0,0.0
2,tabuk,sa,17.41,121.44,20.16,0.76,95.0,48.0
3,fort smith,us,35.39,-94.42,18.0,2.1,93.0,1.0
4,pontes e lacerda,br,-15.23,-59.33,25.91,0.36,86.0,8.0
5,mount isa,au,-20.73,139.49,28.0,1.5,69.0,100.0
6,simpang,id,4.82,100.71,26.0,1.41,88.0,75.0
7,aripuana,br,-9.17,-60.63,29.81,0.61,67.0,64.0
8,eydhafushi,mv,5.1,73.07,28.06,6.56,100.0,92.0
9,luba,gq,17.32,120.7,23.34,1.91,81.0,8.0
10,saint-pierre,mq,48.95,4.24,-3.0,9.8,49.0,90.0
11,sadiqabad,pk,28.31,70.13,18.69,3.61,85.0,0.0
12,san luis,ar,-33.3,-66.34,21.91,2.46,69.0,24.0
13,conceicao do mato dentro,br,-19.04,-43.42,22.51,1.16,86.0,32.0
14,yabelo,et,4.89,38.09,17.06,1.36,89.0,76.0
15,konolfingen,ch,46.88,7.62,-3.0,4.1,62.0,75.0
16,mahenge,tz,-8.68,36.72,22.86,0.96,93.0,92.0
17,sawakin,sd,19.1,37.33,24.0,3.1,69.0,0.0
18,ixtapa,mx,20.71,-105.21,25.0,4.1,65.0,5.0
19,buenos aires,cr,-34.61,-58.44,24.0,5.1,64.0,0.0
20,vibo valentia,it,38.68,16.09,5.0,10.3,93.0,75.0
21,chaohu,cn,31.63,117.88,7.0,3.0,100.0,24.0
22,changping,cn,40.22,116.23,-1.0,5.0,26.0,0.0
23,ushuaia,ar,-54.81,-68.31,11.0,7.56,57.0,40.0
24,port hedland,au,-20.31,118.58,26.0,2.6,94.0,40.0
25,cockburn town,tc,21.46,-71.14,23.86,5.46,100.0,0.0
26,navalmoral de la mata,es,39.89,-5.54,10.06,5.11,98.0,88.0
27,radhanpur,in,23.83,71.61,22.09,1.21,45.0,56.0
28,gumdag,tm,39.2,54.59,7.56,2.86,97.0,36.0
29,zhaoyuan,cn,45.52,125.08,-11.64,7.91,77.0,48.0
30,chokurdakh,ru,70.62,147.9,-25.79,4.21,66.0,80.0
31,ilulissat,gl,69.22,-51.1,-12.0,0.5,60.0,20.0
32,contamana,pe,-7.35,-75.01,29.11,0.76,72.0,0.0
33,viedma,ar,-40.81,-62.99,23.69,4.76,45.0,0.0
34,kalangala,ug,-0.32,32.29,21.0,6.2,83.0,75.0
35,novokruchininskiy,ru,51.78,113.77,-24.0,4.0,69.0,0.0
36,santiago de cao,pe,-7.96,-79.24,21.0,5.1,88.0,40.0
37,hay river,ca,60.82,-115.79,-14.0,5.7,77.0,40.0
38,rudnogorsk,ru,57.27,103.75,-22.17,1.16,75.0,36.0
39,sokoni,tz,-12.89,28.78,17.91,2.11,100.0,92.0
40,tongren,cn,27.72,109.18,13.09,1.31,100.0,92.0
41,oakdale,us,37.77,-120.85,17.0,4.1,33.0,1.0
42,enshi,cn,30.29,109.48,8.44,1.06,98.0,100.0
43,yakeshi,cn,49.28,120.73,-17.02,3.86,83.0,44.0
44,umm kaddadah,sd,13.6,26.69,22.26,1.36,36.0,48.0
45,gambiran,id,-7.93,111.77,22.09,0.66,97.0,68.0
46,itaueira,br,-7.6,-43.03,22.71,1.51,94.0,80.0
47,west bay,ky,50.71,-2.76,-4.0,7.7,73.0,64.0
48,mastic beach,us,40.77,-72.85,9.0,3.6,75.0,1.0
49,muncar,id,-8.43,114.34,26.76,1.41,96.0,32.0
50,mansa,zm,23.43,72.66,24.0,1.5,44.0,40.0
51,najran,sa,17.54,44.22,22.0,1.41,35.0,0.0
52,micheweni,tz,-4.97,39.83,27.21,2.86,100.0,80.0
54,leningradskiy,ru,69.38,178.42,-13.67,11.66,93.0,68.0
55,shelburne,ca,44.08,-80.2,12.0,4.1,93.0,90.0
56,puerto narino,co,-3.77,-70.38,27.0,1.0,88.0,75.0
57,moyeuvre-grande,fr,49.25,6.05,-5.0,13.4,53.0,0.0
59,isangel,vu,-19.55,169.27,27.74,2.56,100.0,0.0
60,si bun ruang,th,16.97,102.28,23.0,0.5,88.0,44.0
61,gasa,bt,27.91,89.73,-25.59,0.61,35.0,0.0
62,kruisfontein,za,-34.0,24.73,20.16,1.66,100.0,88.0
63,kirakira,sb,-10.46,161.92,26.19,4.81,100.0,88.0
65,guilin,cn,25.28,110.29,15.0,1.61,100.0,75.0
66,turbat,pk,26.0,63.05,13.99,0.46,84.0,0.0
67,gigmoto,ph,13.78,124.39,25.81,4.51,100.0,76.0
68,obihiro,jp,42.92,143.2,-10.0,2.1,85.0,75.0
69,namie,jp,37.52,140.86,8.0,1.5,100.0,75.0
70,cabo san lucas,mx,22.89,-109.91,22.0,4.6,72.0,90.0
71,xam nua,la,20.42,104.04,12.74,0.81,95.0,0.0
73,orlovskiy,ru,46.87,42.05,0.99,11.01,99.0,92.0
74,borgarnes,is,64.54,-21.92,4.0,2.1,93.0,90.0
75,kropotkin,ru,45.43,40.58,1.91,7.91,92.0,88.0
76,beidao,cn,34.57,105.89,1.46,1.16,96.0,88.0
77,yatou,cn,3.63,9.81,28.0,2.1,83.0,75.0
78,preston,us,53.76,-2.71,-4.0,8.2,73.0,40.0
80,onega,ru,63.91,38.09,-13.54,5.46,78.0,76.0
81,saint-philippe,re,45.36,-73.48,11.0,5.7,94.0,90.0
82,birjand,ir,32.86,59.22,10.0,2.1,66.0,75.0
84,oksfjord,no,70.24,22.35,3.0,4.1,69.0,92.0
85,nicoya,cr,10.15,-85.45,30.0,10.3,48.0,0.0
86,pringsewu,id,-5.36,104.98,22.61,1.36,95.0,92.0
87,phan thiet,vn,10.93,108.1,24.86,4.66,96.0,12.0
88,srandakan,id,-7.94,110.25,23.81,2.21,89.0,12.0
89,prince george,ca,53.92,-122.75,1.0,5.1,64.0,90.0
90,shahrud,ir,36.42,54.97,1.06,1.21,93.0,36.0
91,atkarsk,ru,51.88,45.01,-19.07,5.91,72.0,36.0
92,antsohihy,mg,-14.88,47.99,22.19,0.71,100.0,32.0
93,mogoytuy,ru,51.28,114.93,-20.94,3.86,52.0,20.0
94,ada,us,47.3,-96.52,-2.0,3.1,79.0,1.0
96,pocoes,br,-14.53,-40.37,24.0,4.1,64.0,0.0
97,sitrah,bh,26.15,50.62,20.0,5.7,77.0,0.0
98,yumen,cn,40.29,97.04,0.56,7.01,77.0,48.0
99,severodvinsk,ru,64.56,39.82,-12.0,5.0,78.0,40.0
100,dawei,mm,14.07,98.19,20.84,1.01,92.0,0.0
101,nabire,id,-3.36,135.5,24.01,0.41,89.0,56.0
102,mineros,bo,-17.12,-63.23,24.0,2.1,94.0,75.0
103,puksoozero,ru,62.59,40.61,-17.77,4.66,65.0,0.0
104,mirabad,af,28.27,61.33,10.49,5.36,94.0,88.0
105,sovetskiy,ru,56.76,48.47,-25.89,1.31,44.0,36.0
106,sur,om,22.57,59.53,21.91,2.41,97.0,12.0
107,boa vista,br,2.82,-60.67,34.0,2.1,41.0,40.0
108,adrar,dz,27.87,-0.29,20.0,8.2,11.0,0.0
109,clarence town,bs,-32.59,151.78,24.0,7.7,64.0,40.0
110,baruun-urt,mn,46.68,113.28,-24.42,2.86,51.0,0.0
112,beaufort,us,5.36,115.76,25.0,1.41,94.0,75.0
113,alur,in,17.7,76.43,16.96,3.56,47.0,0.0
114,kayerkan,ru,69.35,87.76,-25.17,13.01,61.0,80.0
115,mayumba,ga,-3.44,10.65,25.16,2.11,100.0,92.0
116,baghdad,iq,33.3,44.38,13.0,2.1,93.0,8.0
117,midland,us,32.0,-102.08,22.0,5.7,42.0,80.0
118,hof,no,50.32,11.92,-10.0,4.1,61.0,1.0
119,teeli,ru,51.01,90.2,-16.99,1.81,48.0,0.0
120,yalta,ua,46.96,37.27,1.11,13.66,93.0,92.0
121,yashkino,ru,55.87,85.43,-16.64,5.16,77.0,76.0
122,lieksa,fi,63.32,30.02,-20.17,2.31,80.0,0.0
123,livezi,ro,48.23,28.05,-11.54,7.36,83.0,88.0
124,harvard,us,40.62,-98.1,8.0,7.7,64.0,1.0
125,sydney,au,-33.85,151.22,22.0,7.2,68.0,20.0
126,lexington,us,38.05,-84.5,14.0,3.1,87.0,90.0
127,egvekinot,ru,66.32,-179.17,-13.07,2.41,77.0,92.0
128,naica,mx,27.86,-105.49,21.06,11.11,27.0,12.0
129,domna,ru,51.9,113.16,-24.0,4.0,69.0,0.0
130,naryan-mar,ru,67.67,53.09,-5.34,8.26,80.0,32.0
131,nemencine,lt,54.85,25.48,-15.0,3.6,77.0,90.0
132,travesia,hn,15.87,-87.9,29.0,3.1,74.0,40.0
134,vallenar,cl,-28.58,-70.76,15.51,0.96,77.0,0.0
135,norman wells,ca,65.28,-126.83,-19.0,8.2,64.0,90.0
136,beroroha,mg,-21.68,45.17,21.24,1.41,100.0,56.0
137,dareda,tz,-4.22,35.56,14.91,1.16,97.0,92.0
138,vulcan,ca,50.4,-113.26,-2.79,1.81,73.0,0.0
139,arcachon,fr,44.65,-1.18,5.0,2.6,93.0,90.0
140,banjar,id,-7.37,108.54,21.71,1.16,92.0,8.0
141,novyy nekouz,ru,57.91,38.06,-17.24,2.06,73.0,44.0
142,dubrovnik,hr,42.65,18.09,0.0,3.6,100.0,40.0
143,georgetown,gy,6.8,-58.16,25.0,4.1,78.0,20.0
144,huarmey,pe,-10.07,-78.15,21.11,1.31,60.0,20.0
145,geilo,no,60.53,8.21,-27.39,0.96,69.0,0.0
146,savannah bight,hn,16.45,-85.85,26.46,5.51,94.0,36.0
147,dali,cn,25.6,100.24,1.49,0.86,100.0,0.0
148,netivot,il,31.42,34.59,4.86,1.16,86.0,0.0
149,biltine,td,14.53,20.93,20.49,3.56,28.0,0.0
150,sechura,pe,-5.56,-80.82,25.96,6.81,68.0,0.0
151,christchurch,nz,-43.53,172.64,22.0,3.6,68.0,24.0
152,caborca,mx,30.58,-111.1,10.01,2.21,52.0,0.0
153,quatre cocos,mu,-20.21,57.76,26.0,2.6,88.0,40.0
154,numan,ng,9.46,12.04,29.91,3.96,30.0,76.0
155,shingu,jp,33.72,135.99,13.0,9.3,58.0,75.0
156,smithers,ca,54.78,-127.17,-1.0,1.5,74.0,90.0
157,rio grande,br,-32.03,-52.1,22.61,4.11,93.0,20.0
158,gubkinskiy,ru,64.43,76.5,-25.59,7.96,64.0,48.0
160,itupiranga,br,-5.13,-49.33,27.0,1.5,88.0,40.0
161,aden,ye,12.79,45.03,24.24,5.11,100.0,92.0
162,ilebo,cd,-4.33,20.59,22.91,0.91,93.0,88.0
164,pedernales,do,0.07,-80.05,23.81,3.36,89.0,92.0
165,taiyuan,cn,37.86,112.56,-2.0,3.0,39.0,0.0
166,zabid,ye,14.2,44.5,4.26,1.06,81.0,0.0
167,ubinskoye,ru,55.31,79.68,-16.57,3.56,86.0,88.0
168,mandurah,au,-32.55,115.7,19.0,4.6,59.0,0.0
169,hami,cn,42.84,93.51,-2.57,2.96,78.0,32.0
170,namatanai,pg,-3.66,152.44,28.81,3.86,98.0,12.0
171,jhang,pk,33.67,72.7,14.0,0.91,76.0,92.0
173,souris,ca,46.36,-62.25,-3.0,5.1,86.0,90.0
174,rio hato,pa,8.38,-80.16,26.11,6.26,65.0,0.0
175,xiuyan,cn,40.29,123.27,-8.69,7.71,80.0,24.0
176,asheboro,us,35.71,-79.81,12.0,2.6,87.0,90.0
177,yabassi,cm,4.46,9.97,28.0,2.1,83.0,75.0
178,balkhash,kz,46.84,74.98,-7.49,1.86,95.0,68.0
179,mahebourg,mu,-20.41,57.7,26.0,2.6,88.0,40.0
180,chengdu,cn,30.68,104.06,13.0,1.36,82.0,40.0
181,antigonish,ca,45.62,-61.99,-3.0,3.1,92.0,90.0
182,iguape,br,-24.7,-47.56,24.44,4.26,100.0,64.0
183,edendale,nz,-29.65,30.31,14.71,0.91,93.0,0.0
184,boralday,kz,43.36,76.86,2.0,1.0,100.0,75.0
185,shiyan,cn,32.65,110.78,5.94,0.96,95.0,92.0
186,sokolo,ml,14.74,-6.12,28.26,2.61,40.0,80.0
187,farafangana,mg,-22.82,47.83,24.56,3.46,100.0,68.0
188,saint-jean-de-maurienne,fr,45.28,6.35,0.0,4.1,89.0,90.0
189,hualmay,pe,-11.1,-77.61,21.34,1.91,70.0,8.0
190,ginda,er,30.69,78.49,5.11,1.16,71.0,48.0
192,segou,ml,12.41,-12.29,26.21,3.31,42.0,0.0
193,butaritari,ki,3.07,172.79,26.81,6.61,100.0,92.0
194,plouzane,fr,48.38,-4.62,-2.0,8.2,50.0,0.0
195,pailitas,co,8.96,-73.63,28.21,0.91,67.0,32.0
196,rio claro,br,-22.41,-47.56,26.0,0.5,69.0,40.0
197,bolobo,cd,-2.17,16.23,24.44,2.11,81.0,80.0
198,kralendijk,an,12.15,-68.27,25.0,4.6,73.0,0.0
199,camopi,gf,3.17,-52.33,25.09,1.46,87.0,68.0
200,santa maria,cv,-29.69,-53.81,22.0,0.5,100.0,75.0
201,barranca,pe,-10.75,-77.76,19.91,3.11,93.0,32.0
202,cascais,pt,38.7,-9.42,15.0,13.4,87.0,75.0
203,venado tuerto,ar,-33.75,-61.97,23.06,2.26,77.0,48.0
204,batetskiy,ru,58.65,30.3,-17.69,1.61,77.0,44.0
206,kiunga,pg,-6.12,141.3,25.46,1.31,92.0,64.0
207,beipiao,cn,41.8,120.76,-9.89,8.96,43.0,0.0
209,eyemouth,gb,55.87,-2.09,-2.0,12.9,79.0,56.0
210,san andres,co,13.32,122.68,26.91,4.01,100.0,48.0
211,yendi,gh,9.45,0.0,27.84,3.81,56.0,0.0
212,san cristobal,ec,-0.39,-78.55,14.0,1.0,82.0,90.0
213,horki,by,54.29,30.98,-16.17,7.31,75.0,48.0
214,buala,sb,-8.15,159.59,26.71,2.51,100.0,88.0
215,abha,sa,18.22,42.5,15.0,3.6,82.0,0.0
216,kloulklubed,pw,7.04,134.26,28.0,2.6,83.0,90.0
217,atbasar,kz,51.81,68.36,-16.59,4.41,76.0,44.0
218,lincoln,ar,53.23,-0.54,-4.0,9.3,92.0,75.0
219,ca mau,vn,9.18,105.15,25.21,3.31,97.0,92.0
220,arraial do cabo,br,-22.97,-42.02,26.0,1.5,88.0,40.0
221,kalispell,us,48.2,-114.32,1.0,2.1,74.0,90.0
222,araceli,ph,10.55,119.99,27.46,7.06,100.0,20.0
223,wahpeton,us,46.27,-96.61,-2.0,2.1,79.0,1.0
224,shimizu,jp,35.71,139.62,15.0,3.6,100.0,75.0
225,muisne,ec,0.61,-80.02,25.34,3.36,75.0,76.0
226,mount pleasant,us,33.16,-94.97,19.0,2.1,93.0,75.0
227,mondlo,za,-27.96,30.72,13.26,1.21,86.0,0.0
228,nalut,ly,31.86,10.98,12.81,4.21,62.0,0.0
230,birobidzhan,ru,48.79,132.93,-11.39,4.46,76.0,80.0
231,qianguo,cn,45.12,124.86,-10.77,8.01,83.0,64.0
232,karpathos,gr,35.51,27.21,14.0,7.7,76.0,0.0
233,mananjary,mg,-19.16,46.8,14.31,1.41,92.0,64.0
234,holly springs,us,35.65,-78.83,13.0,2.41,81.0,90.0
235,fershampenuaz,ru,53.52,59.82,-21.99,2.51,76.0,20.0
236,tomatlan,mx,19.93,-105.25,27.41,1.46,56.0,0.0
237,ifo,ng,6.81,3.2,27.0,2.6,88.0,20.0
238,gavle,se,60.67,17.14,-7.77,3.36,89.0,68.0
239,matamoros,mx,25.87,-97.51,28.0,13.9,61.0,1.0
240,dale,no,24.09,109.99,17.49,2.71,95.0,12.0
241,hoi an,vn,15.88,108.33,24.0,2.1,88.0,75.0
242,kalmunai,lk,7.42,81.82,23.56,1.51,98.0,88.0
243,alenquer,br,-1.95,-54.74,25.0,2.51,94.0,40.0
244,grand-santi,gf,4.27,-54.38,24.86,1.91,85.0,24.0
245,batemans bay,au,-35.71,150.18,21.59,2.66,72.0,0.0
246,simao,cn,22.76,100.79,8.16,1.56,76.0,0.0
247,ouadda,cf,8.07,22.4,23.31,3.21,79.0,24.0
248,svetlaya,ru,46.54,138.33,-2.19,3.56,100.0,92.0
249,reforma,mx,24.02,-104.65,24.0,10.8,13.0,20.0
251,dicabisagan,ph,17.08,122.42,23.26,0.96,100.0,76.0
252,tazovskiy,ru,67.47,78.7,-19.54,11.86,74.0,68.0
253,mersing,my,2.43,103.84,26.09,4.11,92.0,76.0
254,wyszkow,pl,52.59,21.46,-12.0,4.1,78.0,40.0
255,tucuman,ar,-17.17,-70.89,16.84,1.31,69.0,8.0
256,novyy urengoy,ru,66.08,76.63,-20.49,11.21,81.0,88.0
257,zabol,ir,31.03,61.49,13.96,1.36,100.0,32.0
258,shubarkuduk,kz,49.15,56.49,-15.82,5.21,82.0,0.0
259,laguna,br,27.52,-110.01,20.0,2.1,34.0,75.0
260,uspenka,ua,48.39,39.16,-4.99,9.16,92.0,92.0
262,seabra,br,-12.42,-41.77,22.11,3.41,50.0,0.0
263,prainha,br,-1.8,-53.48,25.81,1.81,90.0,12.0
264,dongying,cn,37.43,118.67,0.31,3.31,79.0,12.0
265,montevista,ph,7.7,125.99,24.56,0.96,84.0,44.0
266,ibia,br,5.18,6.32,21.66,2.21,100.0,80.0
267,delmas,za,18.55,-72.29,27.0,4.6,69.0,40.0
268,maksi,in,56.95,27.73,-18.29,5.56,80.0,48.0
269,tortoli,it,39.93,9.66,7.0,3.71,87.0,90.0
270,tuscaloosa,us,33.21,-87.57,24.0,2.1,69.0,20.0
271,kavaratti,in,10.57,72.64,28.46,0.96,100.0,0.0
272,puerto ayora,ec,-0.74,-90.35,29.0,6.2,70.0,20.0
273,siguiri,gn,11.42,-9.17,24.71,1.36,72.0,12.0
274,shirokiy,ru,53.87,39.17,-17.79,5.86,76.0,48.0
276,bundaberg,au,-24.87,152.35,26.81,2.56,100.0,0.0
277,chandauli,in,25.26,83.27,17.49,1.41,83.0,0.0
279,tete,mz,-16.16,33.59,24.61,3.11,91.0,92.0
280,artesia,us,32.84,-104.4,18.0,10.3,21.0,40.0
281,chico,us,39.73,-121.84,13.0,7.2,43.0,90.0
282,dangara,tj,11.43,7.3,20.76,2.36,42.0,12.0
283,pacifica,us,37.61,-122.49,14.0,4.6,71.0,75.0
284,norwich,gb,52.63,1.29,-4.0,8.2,73.0,56.0
285,floro,no,61.6,5.03,-7.0,3.6,41.0,0.0
286,senneterre,ca,48.39,-77.24,-1.0,3.6,68.0,75.0
287,wawa,ca,9.9,4.41,22.96,2.26,49.0,0.0
288,narasannapeta,in,18.42,84.04,14.06,1.26,95.0,0.0
289,nagato,jp,34.35,131.14,10.0,8.2,76.0,75.0
290,bambanglipuro,id,-7.95,110.28,23.81,2.21,89.0,12.0
291,jalalpur,in,26.31,82.74,17.66,2.11,73.0,0.0
292,port-cartier,ca,50.03,-66.88,-8.0,1.5,78.0,75.0
293,barth,de,54.37,12.73,-10.0,3.6,66.0,76.0
294,zhob,pk,31.34,69.45,8.44,1.31,100.0,92.0
296,pisticci,it,40.39,16.56,5.0,3.1,80.0,0.0
297,nambucca heads,au,-30.64,152.99,27.0,2.6,65.0,0.0
298,tabas,ir,33.6,56.92,8.74,1.21,96.0,92.0
299,kristiansand,no,37.36,-76.77,15.0,3.6,44.0,90.0
300,aljezur,pt,37.31,-8.8,15.06,13.76,98.0,92.0
301,altay,cn,47.83,88.13,-8.67,0.41,86.0,80.0
302,nantucket,us,41.28,-70.1,7.0,7.2,81.0,1.0
303,khorramshahr,ir,30.43,48.18,15.0,1.0,93.0,40.0
304,central point,us,42.38,-122.91,5.0,2.6,75.0,90.0
305,killarney,ca,-28.34,152.3,26.94,1.66,68.0,0.0
306,barrow,us,-38.31,-60.23,22.21,3.46,53.0,0.0
308,jiguani,cu,20.37,-76.43,25.0,5.7,65.0,20.0
310,ponta do sol,pt,-20.63,-46.0,20.74,1.06,91.0,12.0
311,ayorou,ne,14.73,0.92,26.49,5.11,27.0,0.0
312,tupelo,us,34.26,-88.7,18.0,7.2,88.0,90.0
313,gafanha da encarnacao,pt,40.62,-8.73,13.0,6.2,93.0,75.0
314,toba,jp,34.47,136.83,14.0,11.8,50.0,20.0
315,codajas,br,-3.84,-62.06,27.59,1.51,83.0,8.0
316,cockburn town,bs,21.46,-71.14,23.86,5.46,100.0,0.0
317,wajima,jp,37.4,136.9,6.0,4.1,100.0,75.0
318,anloga,gh,5.79,0.9,28.0,4.6,83.0,20.0
320,palmer,us,-34.85,139.16,19.0,4.1,55.0,40.0
321,general teran,mx,25.27,-99.68,31.0,6.2,35.0,75.0
322,ilhabela,br,-23.78,-45.36,25.69,3.71,100.0,20.0
323,asosa,et,10.07,34.53,14.59,1.21,59.0,0.0
324,tahe,cn,52.34,124.71,-16.89,1.51,85.0,56.0
325,giyani,za,-23.32,30.73,20.71,2.06,91.0,88.0
326,tilichiki,ru,60.47,166.1,-1.49,2.31,88.0,80.0
327,panjab,af,34.38,67.02,-5.14,1.06,85.0,88.0
328,itarema,br,-2.92,-39.92,25.26,3.36,91.0,24.0
329,torgau,de,51.56,13.0,-10.0,5.7,72.0,0.0
330,altagracia de orituco,ve,9.86,-66.38,25.69,6.56,52.0,0.0
331,mahajanga,mg,-15.72,46.32,24.0,1.0,94.0,40.0
332,bilgi,in,38.1,43.26,2.0,1.0,100.0,75.0
333,port elizabeth,za,39.31,-74.98,14.0,2.1,54.0,1.0
334,belmonte,br,40.36,-7.35,9.81,7.71,98.0,92.0
335,manavalakurichi,in,8.13,77.3,28.0,1.31,78.0,40.0
336,bira,ru,49.0,132.47,-12.94,2.11,74.0,68.0
338,ambovombe,mg,-25.18,46.09,24.51,5.46,96.0,0.0
339,satun,th,6.62,100.07,26.0,2.71,94.0,20.0
340,islamkot,pk,24.7,70.18,19.66,1.86,41.0,88.0
341,dong hoi,vn,17.48,106.6,21.74,0.36,99.0,92.0
343,neryungri,ru,56.66,124.71,-25.34,2.96,74.0,48.0
344,geraldton,ca,49.72,-86.95,-4.0,3.1,73.0,90.0
345,bida,ng,9.08,6.02,25.59,2.06,53.0,8.0
346,hasaki,jp,35.73,140.83,13.0,5.1,93.0,75.0
347,batagay,ru,67.65,134.64,-28.69,1.86,83.0,64.0
348,husavik,is,50.56,-96.99,-3.89,2.61,83.0,0.0
350,misratah,ly,32.38,15.09,13.99,6.01,97.0,0.0
351,lorengau,pg,-2.02,147.27,28.41,0.81,100.0,68.0
353,ellisras,za,-23.67,27.74,17.44,1.31,92.0,68.0
354,iskateley,ru,67.68,53.15,-5.44,8.51,80.0,20.0
356,pionki,pl,51.47,21.44,-14.09,2.56,87.0,56.0
357,colares,pt,38.8,-9.45,15.0,13.4,87.0,75.0
358,kununurra,au,-15.77,128.74,26.0,2.6,88.0,75.0
359,xai-xai,mz,-25.04,33.64,23.26,3.16,100.0,36.0
360,carmen,mx,7.2,124.8,27.59,1.71,65.0,20.0
361,pisco,pe,-13.71,-76.2,25.0,10.3,69.0,0.0
362,seda,lt,57.65,25.75,-18.99,4.76,73.0,56.0
363,galich,ru,58.38,42.35,-18.67,1.36,71.0,48.0
365,highland,us,34.13,-117.21,17.0,2.6,26.0,20.0
366,pervomayskoye,ru,57.07,86.23,-23.74,4.31,72.0,12.0
367,homnabad,in,17.77,77.13,16.16,2.56,53.0,0.0
368,padang,id,-0.92,100.36,27.06,0.36,100.0,76.0
369,salta,ar,-24.79,-65.41,18.0,3.1,93.0,90.0
370,yarim,ye,14.3,44.38,4.26,1.06,81.0,0.0
371,rawson,ar,-43.3,-65.11,25.71,4.91,22.0,0.0
372,sambava,mg,-14.27,50.17,27.16,7.56,100.0,80.0
373,maple creek,ca,49.91,-109.46,-2.64,2.31,73.0,0.0
374,alampur,in,15.88,78.14,17.34,2.06,60.0,0.0
375,san lawrenz,mt,36.06,14.2,14.0,4.6,93.0,0.0
376,xacmaz,az,41.46,48.81,-2.07,1.06,96.0,48.0
377,moindou,nc,-21.69,165.68,31.0,2.6,58.0,0.0
378,agara,ge,42.04,43.82,-1.42,1.66,83.0,12.0
380,les cayes,ht,18.19,-73.75,25.26,1.21,100.0,56.0
381,el jicaro,ni,14.91,-89.89,23.11,0.71,35.0,0.0
382,suntar,ru,62.16,117.65,-28.54,1.41,83.0,56.0
383,kimbe,pg,-5.56,150.15,26.66,0.76,100.0,88.0
384,lalmohan,bd,22.34,90.74,22.21,1.86,92.0,0.0
385,elvas,pt,38.88,-7.16,12.36,9.76,98.0,92.0
386,inta,ru,66.04,60.13,-6.04,4.31,87.0,80.0
387,axim,gh,4.87,-2.24,27.84,4.96,97.0,36.0
388,praia da vitoria,pt,38.73,-27.07,12.0,8.81,87.0,75.0
389,provideniya,ru,64.42,-173.23,-5.0,8.0,79.0,90.0
390,timmins,ca,48.48,-81.33,-2.0,3.6,79.0,90.0
391,menongue,ao,-14.66,17.68,19.66,1.21,66.0,68.0
392,eureka,us,40.8,-124.16,10.0,2.6,81.0,90.0
394,lasa,cn,34.92,32.53,13.0,2.6,87.0,40.0
395,mariental,na,52.28,10.99,-10.54,7.26,60.0,12.0
396,saint-pierre,pm,48.95,4.24,-3.0,9.8,49.0,90.0
397,yanam,in,16.73,82.22,20.34,1.66,81.0,0.0
398,nombre de dios,mx,23.85,-104.24,24.0,10.8,13.0,20.0
399,longview,us,32.5,-94.74,27.0,6.7,57.0,40.0
400,batticaloa,lk,7.71,81.69,25.24,0.56,100.0,48.0
401,lincoln,nz,53.23,-0.54,-4.0,9.3,92.0,75.0
402,nova cruz,br,-6.48,-35.43,27.0,2.1,78.0,20.0
403,energetik,ru,51.74,58.8,-24.57,1.51,58.0,0.0
405,husum,de,54.49,9.05,-5.0,6.2,73.0,8.0
406,launceston,au,-41.43,147.14,18.0,5.7,68.0,0.0
408,cubara,co,7.0,-72.11,21.49,0.86,84.0,0.0
409,kazachinskoye,ru,57.69,93.28,-30.82,1.16,34.0,0.0
410,aksu,cn,52.04,76.93,-15.0,7.0,92.0,75.0
411,narsaq,gl,60.91,-46.05,6.0,3.1,45.0,20.0
412,marshall,us,39.39,-87.69,14.0,2.1,100.0,90.0
413,canela,br,-29.36,-50.81,19.56,0.86,95.0,92.0
414,meadow lake,ca,54.13,-108.44,-1.0,4.6,58.0,40.0
415,mezen,ru,65.85,44.24,-5.32,3.96,84.0,92.0
416,aberystwyth,gb,52.41,-4.08,-5.34,8.96,100.0,8.0
417,puri,in,-7.54,112.45,26.0,2.1,94.0,20.0
418,codrington,ag,-28.95,153.24,28.44,1.56,75.0,0.0
420,bath,us,51.38,-2.36,-5.0,8.2,67.0,90.0
421,gryazovets,ru,58.88,40.25,-17.69,1.21,65.0,56.0
422,otane,nz,-39.89,176.62,22.26,3.01,58.0,48.0
423,mpika,zm,-11.84,31.4,16.46,2.41,97.0,92.0
424,sao francisco do sul,br,-26.24,-48.64,25.0,3.1,88.0,75.0
425,mikuni,jp,36.22,136.15,10.0,20.6,81.0,75.0
427,timiryazevskoye,ru,56.49,84.88,-17.49,3.66,73.0,68.0
428,cabo rojo,us,18.09,-67.15,23.0,5.1,73.0,75.0
429,lodeynoye pole,ru,60.73,33.55,-19.52,1.06,77.0,20.0
430,melendugno,it,40.27,18.34,3.0,3.6,69.0,0.0
432,chernyshevskiy,ru,63.01,112.47,-31.67,1.16,37.0,24.0
433,dubbo,au,-32.25,148.6,25.0,3.6,33.0,8.0
434,zabaykalsk,ru,49.64,117.33,-17.84,6.11,70.0,0.0
435,abu kamal,sy,34.45,40.92,2.94,1.61,80.0,0.0
437,broome,au,52.47,1.45,-5.0,9.3,85.0,80.0
438,chimbote,pe,-9.08,-78.59,20.74,2.56,85.0,0.0
440,yenagoa,ng,4.92,6.26,22.34,1.66,99.0,88.0
441,neuquen,ar,-38.95,-68.06,29.0,1.5,39.0,0.0
442,lisakovsk,kz,52.55,62.49,-21.39,3.81,73.0,0.0
443,waingapu,id,-9.65,120.26,24.81,1.71,99.0,12.0
444,dovers,vc,12.88,-61.18,25.59,6.56,100.0,0.0
445,souillac,mu,45.6,-0.6,2.0,2.1,92.0,92.0
446,yar-sale,ru,66.83,70.83,-11.79,14.11,85.0,92.0
447,cordoba,ar,5.59,-73.79,13.84,1.01,71.0,8.0
448,key west,us,47.93,-96.78,0.0,3.6,85.0,1.0
449,acajutla,sv,13.59,-89.83,31.0,2.6,62.0,0.0
450,soma,tr,37.8,140.92,8.0,10.8,100.0,75.0
451,pirovskoye,ru,57.63,92.27,-29.44,1.46,60.0,0.0
452,salinas,ec,36.67,-121.66,15.0,4.1,54.0,1.0
453,maniwaki,ca,46.38,-75.98,1.06,2.76,99.0,88.0
454,waddan,ly,29.16,16.14,8.09,1.31,87.0,0.0
455,magadi,ke,12.96,77.22,15.0,0.5,100.0,0.0
456,batagay-alyta,ru,67.8,130.41,-24.02,1.06,68.0,48.0
457,ormara,pk,25.21,64.64,21.01,2.56,90.0,20.0
459,ekhabi,ru,53.51,142.97,-16.82,1.51,90.0,20.0
460,kargopol,ru,61.51,38.95,-16.59,4.91,69.0,32.0
461,yantal,ru,56.85,105.25,-22.79,1.11,63.0,48.0
462,kungurtug,ru,50.6,97.53,-12.82,2.06,72.0,64.0
463,robertson,za,-33.8,19.88,8.16,0.86,92.0,0.0
464,batken,kg,40.06,70.82,3.19,1.16,86.0,8.0
465,storsteinnes,no,69.24,19.23,0.0,3.6,86.0,92.0
466,east brainerd,us,35.0,-85.15,12.0,2.6,93.0,90.0
467,hervey bay,au,-25.3,152.85,26.84,1.36,92.0,0.0
468,samana,do,0.12,-76.97,27.0,1.0,78.0,75.0
469,riberalta,bo,-11.0,-66.08,30.0,0.61,79.0,75.0
470,channel-port aux basques,ca,47.57,-59.14,-2.49,4.46,100.0,0.0
471,saint-paul,re,45.22,1.9,4.0,6.7,86.0,90.0
472,obama,jp,35.49,135.74,9.11,9.46,82.0,0.0
473,ambon,id,47.55,-2.56,-3.0,8.2,86.0,90.0
474,pemba,mz,-12.97,40.52,28.94,0.76,100.0,0.0
475,marsh harbour,bs,26.54,-77.06,23.09,5.66,100.0,80.0
476,okakarara,na,-20.59,17.46,21.46,1.11,57.0,88.0
477,macomer,it,40.26,8.77,9.0,3.1,81.0,0.0
478,byron bay,au,-28.65,153.62,27.0,5.1,65.0,0.0
479,suez,eg,29.97,32.54,6.36,1.21,67.0,0.0
480,krapivinskiy,ru,55.0,86.81,-15.0,3.0,71.0,90.0
481,sal rei,cv,16.18,-22.92,20.0,3.1,68.0,20.0
482,nidzica,pl,53.36,20.43,-14.42,4.71,73.0,68.0
483,turayf,sa,31.68,38.65,8.0,2.1,87.0,0.0
484,jackson,us,35.61,-88.82,17.0,2.11,100.0,90.0
485,behbahan,ir,30.59,50.24,10.0,1.71,100.0,0.0
487,lubao,cd,14.94,120.6,26.0,2.1,88.0,40.0
488,romitan,uz,39.93,64.38,9.0,4.1,87.0,76.0
489,huatulco,mx,15.84,-96.33,30.0,5.1,96.0,75.0
490,gumrak,ru,48.78,44.38,-13.0,13.0,78.0,90.0
491,pimentel,pe,-3.7,-45.5,24.34,1.26,96.0,76.0
493,moose factory,ca,51.26,-80.61,-15.0,2.6,92.0,1.0
494,shache,cn,38.42,77.24,-2.39,1.21,69.0,0.0
498,bhandara,in,21.16,79.65,21.0,1.5,49.0,0.0
499,khawhai,in,23.52,93.19,11.44,1.01,89.0,8.0
